{
    "1":{"title": "Tainan Flowers Night Market", "location": {"lat": 23.0114087, "lng": 120.2003643}, "weatherapiurl": "http://api.wunderground.com/api/8b2bf4a9a6f86794/conditions/q/taiwan/Tainan.json"},
    "2":{"title": "Fengjia Night Market", "location": {"lat": 24.1759238, "lng": 120.6456042},  "weatherapiurl": "http://api.wunderground.com/api/8b2bf4a9a6f86794/conditions/q/taiwan/Taichung.json"},
    "3":{"title": "Shilin Night Market", "location": {"lat": 25.0878683, "lng": 121.5240774},  "weatherapiurl": "http://api.wunderground.com/api/8b2bf4a9a6f86794/conditions/q/taiwan/Taipei.json"},
    "4":{"title": "Luodong Night Market", "location": {"lat": 24.6760296, "lng": 121.5240774},  "weatherapiurl": "http://api.wunderground.com/api/8b2bf4a9a6f86794/conditions/q/taiwan/Yilan.json"},
    "5":{"title": "Liouhe Tourist Night Market", "location": {"lat": 22.6320758, "lng": 120.2991547},  "weatherapiurl": "http://api.wunderground.com/api/8b2bf4a9a6f86794/conditions/q/zmw:00000.1.46740.json"},
    "6":{"title": "Keelung Miaokou Night Market", "location": {"lat": 25.1283104, "lng": 121.7435851},  "weatherapiurl": "http://api.wunderground.com/api/8b2bf4a9a6f86794/conditions/q/taiwan/Keelung.json"},
    "7":{"title": "Raohe St. Night Market", "location": {"lat": 25.0509061, "lng": 121.5776476},  "weatherapiurl": "http://api.wunderground.com/api/8b2bf4a9a6f86794/conditions/q/taiwan/Taipei.json"},
    "8":{"title": "Tonghua Night Market", "location": {"lat": 25.0302805, "lng": 121.5542386},  "weatherapiurl": "http://api.wunderground.com/api/8b2bf4a9a6f86794/conditions/q/taiwan/Taipei.json"},
    "9":{"title": "Huaxi St. Night Market", "location": {"lat": 25.0385988, "lng": 121.4984426},  "weatherapiurl": "http://api.wunderground.com/api/8b2bf4a9a6f86794/conditions/q/taiwan/Taipei.json"},
    "10":{"title": "Rueifong Night Market", "location": {"lat": 22.6662632, "lng": 120.2993539},  "weatherapiurl": "http://api.wunderground.com/api/8b2bf4a9a6f86794/conditions/q/zmw:00000.1.46740.json"}
}